[{"id":"8","name":"Rapid City \\\/ Black Hills KOA Holiday","address":"3010 East, SD-44, Rapid City, SD 57703","lat":"44.070000","lng":"-103.167145","type":"campground"},{"id":"7","name":"Sheridan Lake South Shore Campground","address":"8221 US-16, Rapid City, SD 57702","lat":"44.005829","lng":"-103.254265","type":"campground"},{"id":"6","name":"Happy Holiday RV Resort","address":"8990 US-16, Rapid City, SD 57702","lat":"43.990540","lng":"-103.268814","type":"campground"},{"id":"4","name":"Chapel In the Hills","address":"3788 Chapel Ln, Rapid City, SD 57702","lat":"44.048344","lng":"-103.298874","type":"park"},{"id":"5","name":"Lake Park Campground-Cottages","address":"2850 Chapel Ln, Rapid City, SD 57702","lat":"44.057770","lng":"-103.294907","type":"campground"},{"id":"3","name":"Dog Park","address":"3324 Idlehurst Ln, Rapid City, SD 57702","lat":"44.054813","lng":"-103.306129","type":"park"},{"id":"2","name":"Rushmore Lions Nature Park","address":"2901 Chapel Ln, Rapid City, SD 57702","lat":"44.058029","lng":"-103.295715","type":"park"},{"id":"1","name":"Canyon Lake Park","address":"4181 Jackson Blvd, Rapid City, SD 57702","lat":"44.059887","lng":"-103.287270","type":"park"}]